timestamp(unix),attitude_roll(radians),attitude_pitch(radians),attitude_yaw(radians),rotation_rate_x(radians/s),rotation_rate_y(radians/s),rotation_rate_z(radians/s),gravity_x(G),gravity_y(G),gravity_z(G),user_acc_x(G),user_acc_y(G),user_acc_z(G),magnetic_field_x(microteslas),magnetic_field_y(microteslas),magnetic_field_z(microteslas),latitude(degree),longitude(degree),altitude(meter),speed(m/s),course(degree),timestamp(unix)
1482102270.74,0.019907,0.272739,-0.231316,-0.037014,0.013996,0.009711,0.019170,-0.269370,-0.962846,-0.000753,0.000205,-0.001479,19.757311,23.353794,-49.491795,,,,,,
1482102270.83,0.021180,0.273012,-0.230604,-0.041952,0.028628,-0.005944,0.020394,-0.269633,-0.962747,0.001671,-0.010748,-0.012213,19.847597,23.354347,-49.455395,,,,,,
1482102270.92,0.022910,0.273158,-0.230439,-0.009491,-0.026205,0.010766,0.022059,-0.269774,-0.962671,-0.009317,-0.015916,-0.022116,19.974995,23.362591,-49.400177,,,,,,
1482102271.01,0.023301,0.274513,-0.230393,0.001693,0.029438,-0.004050,0.022426,-0.271078,-0.962296,-0.004101,-0.006784,-0.025924,19.977995,23.275635,-49.439999,,,,,,
1482102271.10,0.025289,0.276330,-0.230732,-0.019511,-0.011600,0.013253,0.024327,-0.272827,-0.961756,-0.004979,-0.004319,-0.003592,20.087996,23.201160,-49.430428,,,,,,
1482102271.19,0.027370,0.276961,-0.230317,0.073881,0.101434,-0.002841,0.026323,-0.273434,-0.961531,0.007506,-0.014485,-0.026293,20.097553,23.231976,-49.412067,,,,,,
1482102271.29,0.036954,0.281530,-0.231257,0.019157,0.074145,-0.021302,0.035491,-0.277826,-0.959976,-0.002257,0.004663,-0.012772,20.539206,22.929211,-49.371864,,,,,,
1482102271.38,0.050770,0.291731,-0.230774,0.117081,0.190443,0.049205,0.048604,-0.287610,-0.956513,0.001185,-0.004275,0.003327,21.067131,22.631601,-49.286667,,,,,,
1482102271.47,0.055980,0.293792,-0.229194,0.012896,0.063259,-0.010313,0.053554,-0.289584,-0.955653,-0.000880,-0.004560,-0.016743,21.645815,22.297922,-49.187904,,,,,,
1482102271.56,0.059271,0.293695,-0.229204,-0.016975,0.036881,-0.009795,0.056700,-0.289491,-0.955500,0.000811,-0.000884,0.009211,21.783440,22.294992,-49.128441,,,,,,
1482102271.65,0.061092,0.296876,-0.230501,-0.025543,-0.050231,-0.004468,0.058384,-0.292534,-0.954471,0.001843,0.001366,0.016025,21.888180,22.163305,-49.141472,,,,,,
1482102271.74,0.059529,0.294731,-0.230430,-0.026877,0.022472,-0.018032,0.056928,-0.290483,-0.955185,-0.004591,-0.005813,0.002472,21.786140,22.251305,-49.147049,,,,,,
1482102271.83,0.060155,0.292979,-0.231262,0.000589,-0.046872,0.006030,0.057557,-0.288806,-0.955656,0.008651,-0.003019,-0.003237,21.853096,22.321823,-49.085304,,,,,,
1482102271.92,0.055556,0.293619,-0.232525,0.010710,-0.066260,-0.013262,0.053151,-0.289418,-0.955726,0.003169,0.007741,0.012412,21.597698,22.368843,-49.176853,,,,,,
1482102272.01,0.049786,0.294179,-0.233902,-0.014309,-0.034564,-0.011901,0.047627,-0.289954,-0.955855,-0.007313,-0.001458,-0.006151,21.196405,22.356335,-49.356815,,,,,,
1482102272.10,0.049700,0.292542,-0.233745,-0.048137,-0.019822,0.011314,0.047569,-0.288387,-0.956332,0.001473,-0.001027,0.020876,21.185682,22.416948,-49.333923,,,,,,
1482102272.19,0.051361,0.292546,-0.234150,0.024200,0.031645,-0.006618,0.049158,-0.288391,-0.956250,0.005927,0.006973,0.002850,21.237713,22.459444,-49.292210,,,,,,
1482102272.28,0.046670,0.287477,-0.234344,-0.076711,-0.051043,0.005836,0.044739,-0.283534,-0.957918,-0.011108,-0.012044,-0.007292,21.078888,22.626789,-49.283844,,,,,,
1482102272.37,0.048734,0.288945,-0.234655,-0.039348,-0.039290,0.011343,0.046695,-0.284941,-0.957407,-0.001407,0.001143,0.024698,21.101332,22.642029,-49.267242,,,,,,
1482102272.46,0.046108,0.289778,-0.234167,-0.014403,0.012625,-0.009667,0.044170,-0.285740,-0.957289,-0.005687,0.001148,0.009336,20.996975,22.596663,-49.332607,,,,,,
1482102272.55,0.047692,0.290967,-0.234448,0.022918,0.024347,0.004266,0.045670,-0.286878,-0.956878,-0.004838,-0.005968,0.002013,21.057337,22.549198,-49.328598,,,,,,
1482102272.65,0.049131,0.292902,-0.235154,-0.004446,0.008881,-0.003752,0.047019,-0.288732,-0.956255,-0.002708,0.004949,0.025026,21.111769,22.448484,-49.351265,,,,,,
1482102272.74,0.052407,0.294402,-0.235544,0.004216,0.051191,-0.007666,0.050129,-0.290167,-0.955662,-0.011341,0.004630,0.020253,21.249149,22.386524,-49.320442,,,,,,
1482102272.83,0.056464,0.295851,-0.236532,0.004330,-0.012997,-0.002552,0.053982,-0.291554,-0.955030,-0.001339,0.002034,0.009717,21.438675,22.333479,-49.262436,,,,,,
1482102272.92,0.057218,0.296482,-0.236442,0.024151,0.076459,-0.014045,0.054692,-0.292158,-0.954805,-0.012608,0.009412,0.014742,21.434401,22.294636,-49.281887,,,,,,
1482102273.01,0.063866,0.301542,-0.237539,0.069102,0.034865,-0.005975,0.060943,-0.296993,-0.952933,0.002594,-0.000523,0.017173,21.686773,22.157906,-49.233116,,,,,,
1482102273.10,0.065147,0.303048,-0.237966,0.006747,0.018447,-0.000320,0.062135,-0.298430,-0.952407,-0.003449,0.012648,0.034423,21.807173,21.984114,-49.257839,,,,,,
1482102273.19,0.063588,0.303028,-0.237720,0.010636,-0.019098,-0.009776,0.060650,-0.298412,-0.952508,0.002140,0.000896,0.006662,21.752604,21.993309,-49.277859,,,,,,
1482102273.28,0.064472,0.303392,-0.238041,0.005553,0.020888,-0.007483,0.061485,-0.298759,-0.952346,0.000100,0.002265,0.020522,21.761686,21.979950,-49.279808,,,,,,
1482102273.37,0.063690,0.304427,-0.237958,0.004288,0.002673,0.004689,0.060721,-0.299747,-0.952085,0.002130,0.009982,0.016110,21.724319,21.911688,-49.326672,,,,,,
1482102273.46,0.062979,0.302145,-0.238164,-0.028055,0.003021,-0.011768,0.060087,-0.297569,-0.952807,-0.009061,-0.001762,0.023471,21.696627,22.004551,-49.297516,,,,,,
1482102273.55,0.062220,0.301064,-0.239139,-0.041750,-0.013844,-0.010281,0.059383,-0.296536,-0.953174,0.002262,0.018140,0.038653,21.631340,22.065058,-49.299156,,,,,,
1482102273.64,0.060345,0.301056,-0.239546,0.006863,-0.011876,-0.004866,0.057596,-0.296529,-0.953285,0.005423,0.010122,0.021004,21.517559,22.116161,-49.326050,,,,,,
1482102273.73,0.058969,0.299731,-0.239303,-0.014461,0.017257,0.001323,0.056308,-0.295263,-0.953755,-0.008181,0.006369,0.035039,21.442556,22.163670,-49.337383,,,,,,
1482102273.82,0.058218,0.299410,-0.239738,-0.004401,-0.014302,-0.001060,0.055596,-0.294957,-0.953892,-0.002603,0.004475,0.028278,21.410946,22.197523,-49.335888,,,,,,
1482102273.91,0.058601,0.299588,-0.240331,-0.008223,-0.016788,0.007474,0.055959,-0.295126,-0.953818,0.006205,0.005866,0.028434,21.408184,22.210182,-49.331390,,,,,,
1482102274.01,0.057956,0.299650,-0.240675,0.003053,0.030436,-0.021772,0.055343,-0.295186,-0.953836,-0.002578,0.013387,0.029473,21.336544,22.209532,-49.362709,,,,,,
1482102274.10,0.056150,0.300112,-0.240818,0.001728,-0.009716,0.001347,0.053612,-0.295627,-0.953798,-0.005974,0.004550,0.017595,21.298704,22.212975,-49.377502,,,,,,
1482102274.19,0.056101,0.300419,-0.240616,-0.014496,-0.004730,0.001523,0.053561,-0.295920,-0.953710,-0.002596,-0.001992,0.015020,21.276266,22.186100,-49.399254,,,,,,
1482102274.28,0.055830,0.300111,-0.241361,-0.028145,-0.065291,0.004431,0.053306,-0.295627,-0.953815,0.010002,0.008258,0.031620,21.252079,22.179754,-49.412510,,,,,,
1482102274.37,0.053388,0.298749,-0.241085,-0.008299,0.007207,-0.004576,0.050999,-0.294325,-0.954344,0.004696,0.010252,0.016691,21.098482,22.241283,-49.450661,,,,,,
1482102274.46,0.050757,0.300002,-0.241969,0.001799,-0.045041,-0.011624,0.048469,-0.295522,-0.954106,-0.001335,-0.002039,0.029713,20.993345,22.262953,-49.485645,,,,,,
1482102274.55,0.049380,0.299223,-0.241993,-0.009613,0.001004,0.005152,0.047167,-0.294777,-0.954401,0.003630,0.003624,0.021891,20.877056,22.256561,-49.537693,,,,,,
1482102274.64,0.049170,0.298781,-0.242146,0.011682,-0.028308,-0.003348,0.046973,-0.294355,-0.954541,0.005410,-0.003130,0.008984,20.882153,22.306782,-49.512947,,,,,,
1482102274.73,0.048678,0.297097,-0.242023,-0.024586,0.010695,-0.001828,0.046527,-0.292746,-0.955058,-0.003451,0.000326,0.014186,20.848104,22.364998,-49.501034,,,,,,
1482102274.82,0.050563,0.296426,-0.242674,-0.003385,0.006865,0.000338,0.048337,-0.292104,-0.955164,0.004031,0.005727,0.022913,20.902317,22.397400,-49.463505,,,,,,
1482102274.91,0.050638,0.295537,-0.242559,-0.012133,0.011724,0.002883,0.048422,-0.291254,-0.955419,-0.005957,0.002954,0.013342,20.915119,22.441410,-49.438137,,,,,,
1482102275.00,0.047686,0.294040,-0.242533,-0.014554,-0.034281,0.007942,0.045622,-0.289821,-0.955993,0.002093,-0.002918,0.028411,20.806149,22.501675,-49.456718,,,,,,
1482102275.09,0.047005,0.294538,-0.243087,-0.005888,0.015270,0.002838,0.044964,-0.290298,-0.955879,0.007556,-0.003342,0.013512,20.693668,22.512547,-49.498955,,,,,,
1482102275.18,0.044801,0.294983,-0.243732,0.007956,-0.041755,0.002935,0.042852,-0.290724,-0.955847,-0.008718,-0.001451,0.022894,20.664812,22.501640,-49.515961,,,,,,
1482102275.28,0.041336,0.295650,-0.244068,0.000561,-0.058640,-0.002863,0.039531,-0.291362,-0.955796,-0.002865,0.005885,0.035157,23.305487,18.431419,-46.555752,,,,,,
1482102275.37,0.039118,0.296760,-0.243136,-0.027090,0.005718,0.011619,0.037398,-0.292424,-0.955557,-0.010146,0.004994,0.023123,23.224985,18.356701,-46.625450,,,,,,
1482102275.46,0.041542,0.295775,-0.243232,-0.015778,-0.006460,0.004366,0.039726,-0.291481,-0.955751,0.012123,-0.000893,0.034807,23.327879,18.401699,-46.556293,,,,,,
1482102275.55,0.041969,0.295857,-0.243752,-0.029465,0.007024,-0.007566,0.040134,-0.291560,-0.955710,0.007352,0.006022,0.019050,23.318350,18.417103,-46.554977,,,,,,
1482102275.64,0.041084,0.296026,-0.243526,-0.003236,0.035893,-0.016402,0.039286,-0.291721,-0.955696,-0.006052,0.017185,0.037346,23.276712,18.385090,-46.588455,,,,,,
1482102275.73,0.042393,0.296158,-0.244509,-0.006931,-0.029520,0.002003,0.040535,-0.291847,-0.955606,0.001487,0.004311,0.029519,23.329218,18.459873,-46.532589,,,,,,
1482102275.82,0.042962,0.296148,-0.244982,-0.008112,-0.005243,-0.006472,0.041079,-0.291838,-0.955585,0.008939,0.002394,0.016697,23.321501,18.426493,-46.549686,,,,,,
1482102275.91,0.043299,0.296093,-0.245585,-0.013083,0.000877,-0.012458,0.041401,-0.291785,-0.955587,-0.001072,0.004279,0.030020,23.318846,18.432596,-46.548599,,,,,,
1482102276.00,0.044279,0.297133,-0.246202,-0.011813,0.042114,-0.018636,0.042324,-0.292780,-0.955243,-0.002850,0.010126,0.026013,23.346695,18.391006,-46.551086,,,,,,
1482102276.09,0.044586,0.296687,-0.246248,-0.027986,0.020483,-0.002648,0.042623,-0.292354,-0.955360,-0.004064,0.010234,0.048042,23.373447,18.430576,-46.522003,,,,,,
1482102276.18,0.043123,0.296195,-0.246494,0.009418,0.020137,0.000507,0.041232,-0.291883,-0.955565,-0.006778,-0.001971,0.026045,23.302589,18.479481,-46.538147,,,,,,
1482102276.27,0.040837,0.295109,-0.246177,-0.011575,-0.018298,-0.007439,0.039061,-0.290844,-0.955973,-0.010420,0.007504,0.042749,23.255421,18.509094,-46.549973,,,,,,
1482102276.36,0.038549,0.297013,-0.247192,-0.000267,-0.060782,-0.004972,0.036852,-0.292665,-0.955505,0.003293,0.015077,0.053619,23.068468,18.431328,-46.673687,,,,,,
1482102276.45,0.038301,0.295369,-0.246860,-0.024100,0.008488,0.009482,0.036634,-0.291093,-0.955993,-0.000485,-0.002822,0.025482,23.035568,18.471434,-46.674080,,,,,,
1482102276.54,0.038870,0.295081,-0.247072,-0.030277,0.027988,-0.009792,0.037181,-0.290818,-0.956056,-0.008937,0.004364,0.043550,23.070322,18.503448,-46.644222,,,,,,
1482102276.64,0.040407,0.294621,-0.248030,-0.006415,-0.024259,-0.003783,0.038655,-0.290377,-0.956131,0.005626,0.008791,0.033036,23.129242,18.559124,-46.592899,,,,,,
1482102276.73,0.039401,0.294725,-0.248184,-0.007664,-0.004848,-0.011080,0.037692,-0.290477,-0.956139,0.001904,0.002269,0.023675,23.079294,18.545914,-46.622917,,,,,,
1482102276.82,0.039346,0.295228,-0.248391,-0.006354,-0.037518,0.008359,0.037634,-0.290958,-0.955995,-0.001089,0.009571,0.033174,23.095371,18.531944,-46.620506,,,,,,
1482102276.91,0.042233,0.296322,-0.249968,0.019894,0.010792,-0.022280,0.040380,-0.292004,-0.955564,0.018580,-0.006824,0.015608,23.148125,18.521843,-46.598354,,,,,,
1482102277.00,0.040727,0.297152,-0.249808,0.006179,0.024289,-0.010093,0.038932,-0.292798,-0.955381,-0.009040,0.004834,0.015806,23.116518,18.486809,-46.627949,,,,,,
1482102277.09,0.042557,0.297329,-0.250657,0.012415,0.004833,-0.001653,0.040678,-0.292968,-0.955257,0.002016,0.007094,0.029445,23.127886,18.483753,-46.623524,,,,,,
1482102277.18,0.041612,0.297348,-0.250926,-0.018598,-0.038453,0.001379,0.039774,-0.292986,-0.955289,0.002630,0.000383,0.030423,23.093561,18.500217,-46.634003,,,,,,
1482102277.27,0.041438,0.297248,-0.250661,0.010010,-0.003600,0.002069,0.039610,-0.292890,-0.955325,0.001223,0.012830,0.020679,23.083965,18.481436,-46.646202,,,,,,
1482102277.36,0.039213,0.297702,-0.250552,0.009035,-0.082172,0.002497,0.037479,-0.293324,-0.955278,0.007855,-0.002055,0.013170,23.041136,18.496506,-46.661400,,,,,,
1482102277.45,0.036169,0.297649,-0.249646,-0.022344,0.021034,-0.002416,0.034571,-0.293273,-0.955403,-0.004801,0.011352,0.027425,22.878460,18.438839,-46.764156,,,,,,
1482102277.54,0.037898,0.297725,-0.250338,-0.008496,-0.003254,0.003595,0.036222,-0.293346,-0.955320,0.004076,-0.002583,0.026029,22.906025,18.482361,-46.733471,,,,,,
1482102277.63,0.038385,0.296495,-0.249880,-0.014656,0.034423,-0.008497,0.036701,-0.292170,-0.955662,-0.007205,0.001322,0.022221,22.968590,18.510860,-46.691467,,,,,,
1482102277.72,0.039009,0.295580,-0.249795,-0.009696,0.018594,0.003554,0.037308,-0.291295,-0.955905,-0.009766,0.011830,0.030399,23.014299,18.546413,-46.654835,,,,,,
1482102277.81,0.037833,0.295675,-0.250179,-0.012048,-0.004276,0.004945,0.036183,-0.291386,-0.955921,0.003353,0.008747,0.046131,22.926651,18.559158,-46.692909,,,,,,
1482102277.90,0.035398,0.295988,-0.249957,-0.009640,0.001703,0.019331,0.033852,-0.291685,-0.955915,-0.007027,0.012754,0.041746,22.856760,18.533886,-46.737190,,,,,,
1482102278.00,0.036476,0.294818,-0.249821,0.000602,-0.024875,-0.002285,0.034895,-0.290565,-0.956219,0.002093,0.011375,0.039059,22.883276,18.588034,-46.702698,,,,,,
1482102278.09,0.036685,0.294503,-0.250651,0.034226,0.026929,-0.013772,0.035098,-0.290264,-0.956303,-0.000598,-0.010639,-0.012371,22.861967,18.610666,-46.704124,,,,,,
1482102278.18,0.035884,0.293854,-0.250297,-0.038125,-0.033004,0.029564,0.034339,-0.289643,-0.956519,0.005319,-0.008926,0.031882,22.847862,18.631153,-46.702850,,,,,,
1482102278.27,0.035984,0.292135,-0.249931,-0.023098,0.015407,-0.002141,0.034452,-0.287997,-0.957011,0.007937,0.013934,0.032710,22.851698,18.711781,-46.668728,,,,,,
1482102278.36,0.034402,0.292587,-0.250472,-0.011736,0.026382,-0.015528,0.032934,-0.288430,-0.956934,-0.004217,0.012322,0.045222,22.753536,18.696251,-46.722885,,,,,,
1482102278.45,0.035521,0.293771,-0.250964,0.006927,-0.015045,0.010918,0.033992,-0.289564,-0.956555,0.019704,-0.011080,0.017117,22.782379,18.708424,-46.703953,,,,,,
1482102278.54,0.032644,0.292564,-0.249115,-0.016714,0.010730,0.006314,0.031251,-0.288408,-0.956997,-0.000443,0.004992,0.035168,22.739328,18.670517,-46.740089,,,,,,
1482102278.63,0.037274,0.295307,-0.251584,0.017127,-0.054926,0.002593,0.035652,-0.291034,-0.956048,0.013435,0.002353,0.036859,22.843479,18.659983,-46.693489,,,,,,
1482102278.72,0.034937,0.294546,-0.250484,-0.007908,0.019248,0.004995,0.033425,-0.290306,-0.956350,-0.002160,0.005180,0.017767,22.780962,18.613369,-46.742607,,,,,,
1482102278.81,0.036605,0.293805,-0.251316,-0.011537,-0.001251,-0.008105,0.035028,-0.289596,-0.956508,0.004385,0.009338,0.026775,22.840586,18.666721,-46.692207,,,,,,
1482102278.90,0.040196,0.293804,-0.252696,-0.008926,-0.043581,0.005338,0.038463,-0.289596,-0.956376,0.014943,-0.009827,0.015702,22.944954,18.726585,-46.617004,,,,,,
1482102278.99,0.038329,0.294002,-0.252108,-0.017804,0.025508,0.005123,0.036675,-0.289785,-0.956389,-0.007317,0.014364,0.025984,22.895948,18.657784,-46.668659,,,,,,
1482102279.08,0.040884,0.293303,-0.252237,-0.013933,-0.001129,0.010051,0.039127,-0.289115,-0.956494,0.005291,0.012855,0.038327,22.962183,18.683458,-46.625824,,,,,,
1482102279.17,0.039601,0.293259,-0.252176,0.023601,0.012003,-0.004882,0.037900,-0.289074,-0.956556,0.001925,0.001079,0.017439,22.946119,18.721027,-46.618664,,,,,,
1482102279.26,0.038718,0.295085,-0.252266,-0.002556,-0.004713,-0.004484,0.037036,-0.290821,-0.956060,-0.000277,0.001484,0.033941,22.912327,18.648354,-46.664391,,,,,,
1482102279.36,0.040174,0.295073,-0.252426,0.007533,0.004993,-0.010640,0.038428,-0.290810,-0.956009,0.001856,0.015862,0.044281,22.964300,18.619783,-46.650249,,,,,,
1482102279.45,0.039815,0.295352,-0.253649,0.006293,0.019560,-0.017915,0.038081,-0.291076,-0.955942,-0.004359,0.007370,0.040735,22.919498,18.637810,-46.665077,,,,,,
1482102279.54,0.040163,0.295099,-0.254448,-0.008642,0.007562,0.000409,0.038416,-0.290835,-0.956002,-0.005671,0.009340,0.053368,22.934980,18.661411,-46.648037,,,,,,
1482102279.63,0.041356,0.294847,-0.254726,-0.018561,-0.037174,0.007961,0.039560,-0.290594,-0.956028,0.008475,0.008245,0.059010,22.993401,18.682905,-46.610661,,,,,,
1482102279.72,0.041013,0.294265,-0.252966,-0.003585,-0.006952,0.011275,0.039239,-0.290037,-0.956211,0.001547,0.012403,0.026996,22.986208,18.664459,-46.621597,,,,,,
1482102279.81,0.043001,0.294860,-0.253337,-0.011022,-0.051715,0.021204,0.041133,-0.290606,-0.955958,0.005620,0.007281,0.027690,23.099525,18.658928,-46.567772,,,,,,
1482102279.90,0.041928,0.293273,-0.252639,-0.014680,0.012642,-0.004300,0.040126,-0.289087,-0.956462,-0.004543,0.006295,0.030192,23.045588,18.714352,-46.572258,,,,,,
1482102279.99,0.042741,0.293879,-0.254997,-0.019563,-0.001790,-0.018616,0.040896,-0.289667,-0.956253,-0.001132,0.008723,0.057297,23.022335,18.732883,-46.576309,,,,,,
1482102280.08,0.044014,0.293437,-0.255738,-0.025839,-0.023569,0.016494,0.042119,-0.289244,-0.956328,0.004726,0.014143,0.054427,23.051622,18.763691,-46.549412,,,,,,
1482102280.17,0.041420,0.292301,-0.254190,0.006575,0.042821,-0.008285,0.039651,-0.288156,-0.956762,-0.005197,0.014322,0.045797,22.998161,18.799751,-46.561302,,,,,,
1482102280.26,0.043527,0.291610,-0.253733,-0.006951,0.006663,0.000512,0.041676,-0.287495,-0.956875,-0.009236,0.015400,0.040005,23.082756,18.816338,-46.512718,,,,,,
1482102280.35,0.044913,0.292517,-0.254069,0.010517,0.001661,0.001525,0.042991,-0.288364,-0.956555,0.003350,0.014239,0.050214,23.130257,18.788189,-46.500500,,,,,,
1482102280.44,0.044275,0.292327,-0.254620,0.009459,0.001759,-0.002041,0.042383,-0.288181,-0.956638,0.002844,0.007786,0.034030,23.085905,18.809643,-46.513863,,,,,,
1482102280.53,0.043561,0.292629,-0.255968,-0.005390,-0.010149,-0.019859,0.041696,-0.288470,-0.956580,-0.002435,0.018176,0.064308,23.032898,18.809311,-46.540268,,,,,,
1482102280.63,0.044777,0.293920,-0.256508,0.028320,0.023440,-0.008360,0.042842,-0.289706,-0.956156,0.000768,0.016604,0.043665,23.045155,18.769310,-46.550350,,,,,,
1482102280.72,0.042775,0.294459,-0.255644,-0.009018,0.005606,0.011457,0.040922,-0.290222,-0.956084,-0.011243,0.004699,0.046813,23.024170,18.760120,-46.564434,,,,,,
1482102280.81,0.044826,0.294646,-0.254902,-0.002704,-0.053812,0.021287,0.042879,-0.290401,-0.955944,0.011137,0.018734,0.057232,23.105591,18.705555,-46.546051,,,,,,
1482102280.90,0.043084,0.295222,-0.254039,0.009844,0.018839,0.006382,0.041208,-0.290952,-0.955850,-0.011407,0.008543,0.031823,23.069845,18.667471,-46.579060,,,,,,
1482102280.99,0.045253,0.295045,-0.254793,0.007422,0.024977,-0.010468,0.043283,-0.290783,-0.955810,0.003653,0.010341,0.034423,23.121347,18.676811,-46.549774,,,,,,
1482102281.08,0.045272,0.296083,-0.256084,0.005136,-0.010087,-0.006635,0.043287,-0.291776,-0.955507,-0.003889,0.015912,0.057313,23.102562,18.655895,-46.567478,,,,,,
1482102281.17,0.045643,0.297319,-0.256925,-0.014886,0.032484,-0.011403,0.043625,-0.292958,-0.955129,0.000427,0.014073,0.056417,23.075857,18.602974,-46.601883,,,,,,
1482102281.26,0.044518,0.297545,-0.256683,-0.019921,0.016749,0.015228,0.042548,-0.293174,-0.955112,-0.018210,0.011436,0.066043,23.041485,18.586329,-46.625519,,,,,,
1482102281.35,0.045851,0.297298,-0.255643,-0.016130,-0.000227,0.012854,0.043824,-0.292938,-0.955127,0.005797,0.012939,0.046786,23.109928,18.598225,-46.586891,,,,,,
1482102281.44,0.045846,0.297420,-0.254508,-0.009877,0.028845,0.009051,0.043818,-0.293055,-0.955091,-0.010112,0.001414,0.040357,23.160700,18.557211,-46.578030,,,,,,
1482102281.53,0.046839,0.296491,-0.254556,-0.009726,-0.015914,-0.001574,0.044779,-0.292166,-0.955319,-0.001612,0.020300,0.059338,23.223579,18.601528,-46.529018,,,,,,
1482102281.62,0.046459,0.296134,-0.254953,0.010291,0.020318,-0.017619,0.044421,-0.291825,-0.955440,-0.009646,0.024735,0.050899,23.195677,18.630817,-46.531219,,,,,,
1482102281.71,0.044396,0.296740,-0.255041,-0.013422,-0.007374,-0.002755,0.042441,-0.292404,-0.955352,-0.007957,0.008438,0.043350,23.099421,18.603539,-46.589977,,,,,,
1482102281.80,0.043627,0.296537,-0.254620,0.000290,-0.002656,0.005498,0.041710,-0.292210,-0.955444,-0.007530,0.012135,0.054291,23.081341,18.616869,-46.593616,,,,,,
1482102281.89,0.043180,0.295873,-0.253712,-0.007234,0.013144,0.006720,0.041291,-0.291575,-0.955656,-0.007493,0.015849,0.055525,23.088051,18.632553,-46.584023,,,,,,
1482102281.99,0.041700,0.295824,-0.251797,0.000178,0.016669,0.027095,0.039877,-0.291528,-0.955731,-0.009665,0.012506,0.042050,23.069590,18.590260,-46.610058,,,,,,
1482102282.08,0.042956,0.294765,-0.250473,-0.025938,0.055759,0.003175,0.041090,-0.290515,-0.955988,-0.008818,0.020129,0.067911,23.161722,18.600487,-46.560261,,,,,,
1482102282.17,0.045163,0.294677,-0.251054,-0.010793,-0.041255,0.009462,0.043201,-0.290431,-0.955920,-0.002033,0.018107,0.038058,23.278561,18.603806,-46.500626,,,,,,
1482102282.26,0.043647,0.293535,-0.251564,0.001856,0.014522,-0.041495,0.041767,-0.289338,-0.956315,-0.003696,0.005738,0.036668,23.166916,18.684427,-46.524052,,,,,,
1482102282.35,0.043171,0.295741,-0.253550,0.007956,-0.060811,0.016558,0.041284,-0.291449,-0.955695,-0.007791,0.011664,0.074225,23.125061,18.665264,-46.552559,,,,,,
1482102282.44,0.042368,0.293722,-0.252619,0.004194,0.015580,-0.004202,0.040542,-0.289516,-0.956314,-0.000152,0.010235,0.041122,23.020214,18.680870,-46.598240,,,,,,
1482102282.53,0.041365,0.295075,-0.251547,-0.000902,0.016761,0.016316,0.039566,-0.290811,-0.955962,-0.003860,0.015756,0.048186,23.054134,18.609985,-46.609833,,,,,,
1482102282.62,0.041713,0.294472,-0.250282,0.010437,0.005807,0.006609,0.039906,-0.290234,-0.956123,0.002681,0.021268,0.056450,23.101082,18.606100,-46.588135,,,,,,
1482102282.71,0.042064,0.295119,-0.251030,0.003073,-0.014655,-0.007650,0.040234,-0.290854,-0.955921,0.007313,0.005103,0.033283,23.120260,18.591766,-46.584343,,,,,,
1482102282.80,0.042632,0.294573,-0.251850,-0.005666,0.003579,-0.006424,0.040784,-0.290331,-0.956057,-0.001065,0.010088,0.047503,23.104933,18.636829,-46.573940,,,,,,
1482102282.89,0.044270,0.295495,-0.253265,0.005708,-0.038856,-0.017198,0.042337,-0.291214,-0.955721,0.015204,0.012436,0.036547,23.154530,18.616083,-46.557602,,,,,,
1482102282.98,0.043923,0.297046,-0.253019,0.002974,0.037337,0.006552,0.041986,-0.292697,-0.955283,-0.008523,0.009219,0.033683,23.109955,18.559587,-46.602283,,,,,,
1482102283.07,0.045898,0.297316,-0.252504,-0.004454,-0.013485,0.017712,0.043869,-0.292955,-0.955119,0.008805,-0.002074,0.046947,23.240936,18.553165,-46.539661,,,,,,
1482102283.16,0.046208,0.296341,-0.251130,-0.005635,0.004709,0.005607,0.044178,-0.292023,-0.955391,-0.001698,0.014343,0.033546,23.295576,18.541542,-46.516972,,,,,,
1482102283.25,0.047219,0.296965,-0.251629,0.033068,0.017733,-0.006964,0.045135,-0.292619,-0.955163,0.007462,0.007219,0.027353,23.309246,18.544226,-46.509052,,,,,,
1482102283.35,0.047167,0.296730,-0.251619,-0.005546,-0.028014,0.010572,0.045089,-0.292395,-0.955234,0.000230,0.009115,0.034336,23.336927,18.530209,-46.500755,,,,,,
1482102283.44,0.049226,0.296327,-0.253310,-0.009142,-0.012166,-0.014738,0.047061,-0.292010,-0.955257,0.008740,0.005816,0.037776,23.338135,18.614462,-46.466484,,,,,,
1482102283.53,0.048750,0.297293,-0.254271,-0.010455,-0.009776,-0.002697,0.046593,-0.292933,-0.954997,0.002190,0.008860,0.048594,23.333286,18.548203,-46.495407,,,,,,
1482102283.62,0.049292,0.297561,-0.253512,-0.008050,0.027679,0.007931,0.047107,-0.293189,-0.954893,-0.005435,0.010734,0.039183,23.350389,18.550797,-46.485786,,,,,,
1482102283.71,0.050158,0.297533,-0.252338,-0.023093,0.010781,0.029861,0.047934,-0.293162,-0.954860,-0.001013,0.003810,0.031993,23.437258,18.520329,-46.454208,,,,,,
1482102283.80,0.048325,0.296821,-0.250254,0.008299,0.025163,-0.009110,0.046194,-0.292482,-0.955155,-0.016119,0.018007,0.034104,23.436323,18.492287,-46.465847,,,,,,
1482102283.89,0.047669,0.297289,-0.250318,-0.009166,0.005913,-0.000380,0.045561,-0.292929,-0.955048,-0.013136,0.012610,0.035431,23.415352,18.474291,-46.483578,,,,,,
1482102283.98,0.047953,0.296596,-0.250493,-0.011582,0.015649,-0.011235,0.045841,-0.292266,-0.955238,-0.006886,0.010818,0.032645,23.393929,18.507542,-46.481136,,,,,,
1482102284.07,0.047134,0.297073,-0.252437,0.018435,-0.019723,-0.012640,0.045053,-0.292722,-0.955136,-0.004663,0.012937,0.034023,23.348633,18.522415,-46.497986,,,,,,
1482102284.16,0.045524,0.298171,-0.252243,0.009649,-0.020936,0.006727,0.043500,-0.293772,-0.954885,0.002704,0.004450,0.035207,23.270956,18.496372,-46.547264,,,,,,
1482102284.25,0.045408,0.298923,-0.251690,0.008353,-0.000347,0.007850,0.043380,-0.294491,-0.954669,0.002305,0.004421,0.021457,23.244051,18.433788,-46.585518,,,,,,
1482102284.34,0.043435,0.299093,-0.250001,-0.006571,-0.020827,0.015343,0.041493,-0.294654,-0.954703,-0.001897,0.007895,0.031851,23.214897,18.387529,-46.618328,,,,,,
1482102284.43,0.043485,0.299705,-0.249387,0.009625,0.008119,0.006584,0.041533,-0.295239,-0.954520,-0.001921,0.008495,0.037559,23.224062,18.353996,-46.626972,,,,,,
1482102284.52,0.044145,0.300073,-0.249702,0.023489,0.004423,-0.011637,0.042159,-0.295590,-0.954384,0.005083,0.010555,0.018715,23.253895,18.344276,-46.615929,,,,,,
1482102284.62,0.044581,0.300381,-0.251459,0.012352,-0.011176,-0.022261,0.042571,-0.295884,-0.954275,0.003205,0.011598,0.021322,23.241362,18.338017,-46.624641,,,,,,
1482102284.71,0.044062,0.302235,-0.251840,0.002284,-0.011193,0.003123,0.042051,-0.297655,-0.953747,-0.000013,-0.000029,0.023678,23.191099,18.295479,-46.666359,,,,,,
1482102284.80,0.045531,0.303370,-0.252206,-0.000214,0.021531,-0.003031,0.043437,-0.298738,-0.953346,0.008382,0.005876,0.020592,23.211535,18.234310,-46.680145,,,,,,
1482102284.89,0.045920,0.303590,-0.250607,-0.020322,0.008262,0.032184,0.043805,-0.298948,-0.953263,0.001987,0.015913,0.036317,23.276794,18.174770,-46.670864,,,,,,
1482102284.98,0.044383,0.303140,-0.248670,0.007201,0.020164,0.017332,0.042345,-0.298518,-0.953464,-0.003313,0.012477,0.017078,23.288643,18.158510,-46.671280,,,,,,
1482102285.07,0.045113,0.302374,-0.248498,-0.012594,0.002267,-0.006415,0.043051,-0.297788,-0.953661,-0.004081,0.005979,0.019457,23.357147,18.186996,-46.625938,,,,,,
1482102285.16,0.044682,0.302019,-0.249680,0.007546,-0.012359,-0.030686,0.042645,-0.297449,-0.953785,-0.003979,0.006814,0.009998,23.304867,18.229282,-46.635578,,,,,,
1482102285.25,0.045498,0.303062,-0.251430,-0.007466,-0.058336,-0.002603,0.043409,-0.298444,-0.953439,0.007051,-0.000186,0.002939,23.249178,18.231682,-46.662434,,,,,,
1482102285.34,0.043990,0.304617,-0.250529,-0.003929,0.040899,-0.000719,0.041952,-0.299928,-0.953039,-0.002965,0.006181,0.013174,23.213953,18.130924,-46.719193,,,,,,
1482102285.43,0.043248,0.304960,-0.249714,-0.003915,-0.008808,0.017567,0.041239,-0.300255,-0.952967,-0.003535,0.000741,0.020960,23.215448,18.127079,-46.719944,,,,,,
1482102285.52,0.042764,0.304417,-0.247860,0.007313,0.033532,0.001566,0.040785,-0.299737,-0.953150,-0.008101,0.008080,0.019465,23.242971,18.096603,-46.718071,,,,,,
1482102285.61,0.042658,0.304086,-0.246881,-0.006333,-0.007522,0.004332,0.040689,-0.299421,-0.953253,-0.008035,0.010664,0.033606,23.283722,18.098137,-46.697186,,,,,,
1482102285.70,0.042044,0.303463,-0.246178,-0.017522,-0.008607,-0.000366,0.040111,-0.298827,-0.953464,0.000233,-0.002931,-0.005139,23.272341,18.088541,-46.706573,,,,,,
1482102285.79,0.041670,0.302932,-0.247320,0.017492,-0.016128,-0.015203,0.039761,-0.298320,-0.953637,-0.005291,0.001536,0.006387,23.237387,18.153557,-46.698753,,,,,,
1482102285.88,0.039283,0.304421,-0.248002,-0.011226,-0.042565,0.003301,0.037467,-0.299741,-0.953285,0.005975,0.003491,0.018562,23.088699,18.091932,-46.796310,,,,,,
1482102285.98,0.038108,0.304480,-0.247655,0.001160,-0.016061,0.009044,0.036346,-0.299798,-0.953310,0.000306,0.000039,-0.009962,23.038773,18.085487,-46.823402,,,,,,
1482102286.07,0.036127,0.305227,-0.246440,-0.011430,0.011862,0.021078,0.034449,-0.300510,-0.953156,-0.007029,-0.005749,0.001206,22.971655,18.022465,-46.880646,,,,,,
1482102286.16,0.033717,0.304513,-0.244199,0.006156,-0.014881,0.007748,0.032159,-0.299828,-0.953451,-0.000864,0.015450,0.028402,22.963869,18.005337,-46.891041,,,,,,
1482102286.25,0.035607,0.305654,-0.244921,0.003722,-0.016003,-0.003080,0.033950,-0.300917,-0.953046,0.006150,0.001585,0.008237,22.994577,17.969120,-46.889885,,,,,,
1482102286.34,0.034607,0.305702,-0.244671,-0.005055,-0.008665,0.002979,0.032996,-0.300962,-0.953065,-0.008002,-0.002550,0.017625,22.999512,17.975025,-46.885201,,,,,,
1482102286.43,0.038892,0.306399,-0.248238,0.025020,-0.035502,-0.012912,0.037071,-0.301628,-0.952705,0.022896,0.001808,0.012992,23.029177,17.999447,-46.861263,,,,,,
1482102286.52,0.037992,0.306097,-0.247822,-0.027539,0.000024,0.005586,0.036218,-0.301339,-0.952829,-0.008920,0.009301,-0.002509,23.031185,17.977493,-46.868706,,,,,,
1482102286.61,0.039048,0.306996,-0.249021,0.011236,-0.043891,0.002908,0.037213,-0.302196,-0.952519,0.023395,-0.005390,0.000233,23.018366,18.000114,-46.866318,,,,,,
1482102286.70,0.037089,0.306529,-0.246826,-0.003953,0.040990,0.009886,0.035352,-0.301751,-0.952731,-0.001798,0.014169,0.022738,22.990908,17.948502,-46.899582,,,,,,
1482102286.79,0.041441,0.308523,-0.247358,0.038544,0.015214,0.003468,0.039473,-0.303652,-0.951965,0.015902,-0.006681,0.003860,23.160633,17.922108,-46.826103,,,,,,
1482102286.88,0.041931,0.308338,-0.246438,-0.007584,0.043558,-0.012987,0.039941,-0.303476,-0.952002,-0.013300,-0.000586,-0.005335,23.263216,17.848438,-46.803391,,,,,,
1482102286.97,0.045780,0.309057,-0.249640,0.010212,-0.067914,-0.030740,0.043596,-0.304160,-0.951623,0.019118,-0.000100,0.003533,23.319912,17.901373,-46.754929,,,,,,
1482102287.06,0.046267,0.311372,-0.250389,-0.012700,0.059315,0.005015,0.044026,-0.306365,-0.950895,-0.004125,-0.003815,0.006269,23.302912,17.818539,-46.795033,,,,,,
1482102287.15,0.047479,0.310980,-0.250193,0.011136,0.027674,-0.008369,0.045185,-0.305992,-0.950961,-0.001865,-0.007180,-0.003278,23.391787,17.841946,-46.741741,,,,,,
1482102287.24,0.048733,0.311761,-0.249701,-0.013986,-0.006136,0.039001,0.046366,-0.306735,-0.950665,-0.005518,-0.002240,0.013928,23.487909,17.798006,-46.710281,,,,,,
1482102287.34,0.051459,0.311166,-0.247806,0.012380,0.044682,-0.015724,0.048966,-0.306168,-0.950717,-0.005418,0.002137,-0.016034,23.624760,17.774084,-46.650337,,,,,,
1482102287.43,0.055079,0.312818,-0.247558,0.012270,0.055569,-0.000161,0.052379,-0.307741,-0.950027,-0.018215,0.010714,-0.011750,23.756493,17.714844,-46.605949,,,,,,
1482102287.52,0.055390,0.312251,-0.247963,0.037410,0.045780,-0.034124,0.052684,-0.307202,-0.950185,-0.012462,-0.008548,-0.014888,23.830008,17.724655,-46.564671,,,,,,
1482102287.61,0.055926,0.314443,-0.250568,0.022529,-0.065544,-0.006981,0.053156,-0.309287,-0.949482,0.005041,-0.008843,-0.016872,23.832064,17.680504,-46.580399,,,,,,
1482102287.70,0.053642,0.316280,-0.249009,-0.012672,0.041270,0.002580,0.050957,-0.311033,-0.949032,-0.014076,-0.004870,-0.005451,23.709185,17.544550,-46.694374,,,,,,
1482102287.79,0.052392,0.315875,-0.248070,-0.006377,0.000076,0.005068,0.049777,-0.310648,-0.949221,-0.007465,-0.001043,-0.007719,23.697990,17.547535,-46.698933,,,,,,
1482102287.88,0.051317,0.315654,-0.246271,0.018485,0.024076,0.007030,0.048760,-0.310439,-0.949342,-0.014077,0.002303,-0.020095,23.697929,17.530167,-46.705486,,,,,,
1482102287.97,0.051814,0.315216,-0.245408,-0.005069,-0.011990,-0.005752,0.049240,-0.310022,-0.949453,0.004426,-0.000998,-0.007257,23.749403,17.510178,-46.686836,,,,,,
1482102288.06,0.052162,0.315492,-0.245173,0.003534,0.033957,-0.004902,0.049565,-0.310284,-0.949351,-0.014027,0.006695,-0.017370,23.787298,17.504112,-46.669815,,,,,,
1482102288.15,0.052308,0.314721,-0.246353,0.017502,-0.018130,-0.031310,0.049716,-0.309551,-0.949582,0.002438,-0.002446,-0.034686,23.754290,17.526104,-46.678375,,,,,,
1482102288.24,0.054363,0.314212,-0.247921,-0.020138,0.018450,-0.006970,0.051676,-0.309068,-0.949635,0.003286,0.001817,-0.024791,23.778473,17.587887,-46.642807,,,,,,
1482102288.33,0.053154,0.313566,-0.247116,-0.011418,0.006237,0.000203,0.050538,-0.308452,-0.949896,-0.003877,-0.001911,-0.002115,23.768394,17.641453,-46.627716,,,,,,
1482102288.42,0.050477,0.314004,-0.246560,0.003535,-0.015733,0.012159,0.047988,-0.308870,-0.949893,0.004517,-0.001845,0.009692,23.656157,17.628241,-46.689747,,,,,,
1482102288.51,0.052613,0.314874,-0.245451,0.029660,0.057953,-0.005356,0.050004,-0.309696,-0.949520,0.000976,0.000691,-0.001026,23.715231,17.575043,-46.679832,,,,,,
1482102288.61,0.052889,0.313974,-0.244361,-0.026451,0.005111,0.013632,0.050280,-0.308841,-0.949784,-0.000963,-0.012448,-0.014099,23.836573,17.582928,-46.615013,,,,,,
1482102288.70,0.051655,0.312901,-0.243555,-0.012634,-0.028892,0.008807,0.049125,-0.307820,-0.950176,0.008355,0.009968,0.007793,23.839462,17.586227,-46.612293,,,,,,
1482102288.79,0.051546,0.313201,-0.244415,0.007503,-0.019238,-0.030003,0.049017,-0.308105,-0.950089,0.007837,0.004700,-0.007583,23.785116,17.595512,-46.636543,,,,,,
1482102288.88,0.053468,0.315588,-0.246897,-0.008763,-0.073694,0.002949,0.050803,-0.310376,-0.949255,0.006692,0.001416,-0.008951,23.803051,17.536724,-46.649536,,,,,,
1482102288.97,0.052317,0.316228,-0.246851,0.001154,-0.053212,0.006343,0.049700,-0.310984,-0.949115,0.014814,-0.008032,-0.016034,23.766525,17.511795,-46.677517,,,,,,
1482102289.06,0.052649,0.316499,-0.246654,-0.032674,-0.003302,0.014948,0.050011,-0.311242,-0.949014,0.005638,-0.000053,0.003381,23.763926,17.464611,-46.696510,,,,,,
1482102289.15,0.054421,0.317084,-0.245705,-0.002802,-0.013313,0.031480,0.051683,-0.311797,-0.948742,0.014266,-0.004823,0.001812,23.880373,17.455238,-46.640579,,,,,,
1482102289.24,0.055213,0.316241,-0.244624,-0.000318,0.008550,0.014440,0.052448,-0.310996,-0.948963,0.002071,-0.004860,-0.011715,23.899740,17.489929,-46.617653,,,,,,
1482102289.33,0.056357,0.314340,-0.243689,-0.005228,-0.011961,0.007374,0.053567,-0.309189,-0.949491,0.004737,0.006485,-0.003283,24.016766,17.515587,-46.547825,,,,,,
1482102289.42,0.058763,0.316468,-0.245340,0.027247,-0.001276,-0.011167,0.055813,-0.311212,-0.948700,0.007755,0.001642,-0.000656,24.062370,17.456356,-46.546524,,,,,,
1482102289.51,0.055892,0.319017,-0.246546,0.028540,-0.015806,-0.013523,0.053044,-0.313633,-0.948062,0.006725,-0.008144,-0.009702,23.924677,17.388050,-46.642967,,,,,,
1482102289.60,0.053870,0.320453,-0.246779,0.007244,-0.054458,0.015773,0.051103,-0.314996,-0.947716,0.005019,0.004663,0.007500,23.849733,17.301815,-46.713364,,,,,,
1482102289.69,0.053427,0.320263,-0.245353,-0.007906,0.046187,0.009470,0.050686,-0.314816,-0.947798,-0.001339,-0.006458,-0.009202,23.805639,17.314131,-46.731289,,,,,,
1482102289.78,0.055385,0.318179,-0.243842,-0.000380,-0.007170,0.018017,0.052578,-0.312838,-0.948350,-0.003948,0.009157,-0.013976,23.961903,17.306362,-46.654240,,,,,,
1482102289.87,0.056718,0.318548,-0.243902,0.007202,-0.009589,-0.000120,0.053836,-0.313187,-0.948164,0.013196,0.000886,-0.003160,24.013796,17.328415,-46.619362,,,,,,
1482102289.97,0.056507,0.317108,-0.242818,0.007206,0.002584,-0.011050,0.053661,-0.311820,-0.948625,-0.003399,-0.010460,-0.030273,24.064531,17.386490,-46.571552,,,,,,
1482102290.06,0.055430,0.317889,-0.244540,0.026034,-0.073853,-0.006148,0.052626,-0.312562,-0.948439,0.014162,-0.011352,-0.022402,23.988020,17.394402,-46.608055,,,,,,
1482102290.15,0.051713,0.319045,-0.245396,-0.014067,-0.029979,0.012192,0.049081,-0.313660,-0.948266,0.008582,-0.010955,-0.010734,23.764400,17.349621,-46.739117,,,,,,
1482102290.24,0.050989,0.319918,-0.244738,0.002033,0.014699,0.010540,0.048381,-0.314488,-0.948028,-0.003154,-0.008403,-0.018312,23.728285,17.306593,-46.773403,,,,,,
1482102290.33,0.052225,0.318492,-0.243317,-0.025459,0.027031,0.015633,0.049576,-0.313134,-0.948414,-0.002915,-0.006629,-0.003643,23.804665,17.311207,-46.732868,,,,,,
1482102290.42,0.053192,0.316438,-0.242063,0.008264,0.029258,-0.000481,0.050527,-0.311183,-0.949006,-0.009191,0.010600,0.004426,23.913147,17.403397,-46.643158,,,,,,
1482102290.51,0.054580,0.316756,-0.242669,-0.000286,-0.084518,0.012192,0.051839,-0.311485,-0.948836,0.005839,0.004936,-0.002702,23.989223,17.398462,-46.605919,,,,,,
1482102290.60,0.055201,0.315546,-0.243168,0.025874,0.054728,-0.044192,0.052449,-0.310336,-0.949179,-0.010670,-0.021375,-0.033685,23.950645,17.459902,-46.602783,,,,,,
1482102290.69,0.053509,0.316343,-0.243474,-0.039256,-0.003095,0.032708,0.050829,-0.311093,-0.949019,-0.015429,-0.014194,-0.017793,23.894060,17.430275,-46.642906,,,,,,
1482102290.78,0.056716,0.314858,-0.244136,-0.037781,0.112314,-0.064192,0.053899,-0.309681,-0.949312,-0.033636,0.022694,0.030443,24.021322,17.451006,-46.569729,,,,,,
1482102290.87,0.052498,0.319862,-0.248220,0.009491,-0.107674,0.051810,0.049813,-0.314436,-0.947971,0.020011,0.002103,0.031086,23.798145,17.471535,-46.676491,,,,,,
1482102290.96,0.055120,0.312789,-0.239587,-0.053398,0.206607,0.017364,0.052419,-0.307714,-0.950034,-0.054830,0.020513,-0.023904,24.157219,17.492527,-46.483780,,,,,,
1482102291.05,0.059680,0.313049,-0.243748,0.090814,-0.143344,0.013625,0.056746,-0.307960,-0.949705,0.070131,-0.059334,-0.125826,24.203672,17.620432,-46.411247,,,,,,
1482102291.14,0.048960,0.316355,-0.243995,-0.085214,0.063065,-0.043005,0.046512,-0.311105,-0.949237,-0.012423,-0.004172,0.034152,23.679707,17.424728,-46.754158,,,,,,
1482102291.23,0.046484,0.315729,-0.243899,0.002286,0.073340,-0.085048,0.044170,-0.310510,-0.949543,-0.005367,0.036553,0.040760,23.547230,17.364195,-46.843502,,,,,,
1482102291.33,0.039321,0.318017,-0.243600,-0.005209,-0.041756,-0.035112,0.037340,-0.312684,-0.949123,-0.028093,-0.025344,0.028347,23.434450,17.499628,-46.849663,,,,,,
1482102291.42,0.041065,0.318835,-0.246689,0.032374,-0.143830,-0.024261,0.038984,-0.313461,-0.948801,0.056841,-0.009965,-0.014975,23.372869,17.404263,-46.915901,,,,,,
1482102291.51,0.037374,0.317579,-0.243187,-0.063356,0.067376,0.068565,0.035497,-0.312267,-0.949331,-0.056294,-0.012318,-0.031596,23.110634,17.353256,-47.064468,,,,,,
1482102291.60,0.043381,0.315983,-0.242721,0.018513,-0.098884,-0.015945,0.041221,-0.310750,-0.949597,0.057992,-0.018031,0.017789,23.469788,17.437656,-46.855076,,,,,,
1482102291.69,0.042994,0.319655,-0.242470,-0.018181,0.004136,0.043002,0.040803,-0.314239,-0.948467,-0.007432,0.014495,-0.059086,23.416599,17.261484,-46.946835,,,,,,
1482102291.78,0.043223,0.316972,-0.240700,0.006994,0.016208,-0.005538,0.041057,-0.311691,-0.949296,0.003331,-0.016953,-0.029113,23.491486,17.349243,-46.877022,,,,,,
1482102291.87,0.043301,0.317446,-0.245649,0.083465,-0.099388,-0.032415,0.041125,-0.312141,-0.949145,0.054579,-0.033333,-0.080915,23.450800,17.466366,-46.853889,,,,,,
1482102291.96,0.037345,0.317999,-0.244560,-0.044228,0.072394,-0.011217,0.035464,-0.312666,-0.949201,-0.044360,0.013197,0.035779,23.046780,17.295786,-47.116905,,,,,,
1482102292.05,0.042664,0.320955,-0.246657,0.023159,0.000277,0.012369,0.040473,-0.315473,-0.948071,0.022713,-0.009066,-0.019062,23.291241,17.289574,-46.998829,,,,,,
1482102292.14,0.046480,0.318549,-0.242551,-0.023414,0.205340,0.009560,0.044125,-0.313189,-0.948665,-0.053021,0.005678,-0.028050,23.543846,17.304096,-46.867432,,,,,,
1482102292.23,0.052809,0.319407,-0.244781,0.071901,-0.094641,0.033870,0.050115,-0.314003,-0.948098,0.044474,-0.027260,-0.028296,23.887053,17.362942,-46.671600,,,,,,
1482102292.32,0.051938,0.317691,-0.240645,-0.069426,0.117364,0.021354,0.049317,-0.312373,-0.948678,-0.071473,0.025249,0.009012,23.849268,17.284367,-46.720062,,,,,,
1482102292.41,0.062670,0.314511,-0.242307,0.036015,-0.045574,-0.040562,0.059557,-0.309351,-0.949081,0.011106,0.013804,-0.009583,24.334354,17.420753,-46.418289,,,,,,
1482102292.50,0.058723,0.315226,-0.244415,0.015881,-0.005491,-0.021261,0.055798,-0.310031,-0.949088,-0.033611,-0.010434,-0.088800,24.125868,17.532990,-46.484818,,,,,,
1482102292.59,0.055939,0.313811,-0.246566,0.006062,-0.071983,-0.024441,0.053179,-0.308686,-0.949676,0.006513,-0.029739,-0.018006,23.948561,17.611937,-46.546616,,,,,,
1482102292.69,0.049895,0.315403,-0.246802,0.010626,-0.060160,0.053677,0.047414,-0.310200,-0.949488,-0.022939,0.012669,-0.017919,23.630859,17.554871,-46.730183,,,,,,
1482102292.78,0.052528,0.315920,-0.245975,-0.025443,0.012987,0.004425,0.049906,-0.310691,-0.949200,0.002783,-0.038170,-0.019733,23.737572,17.641930,-46.643234,,,,,,
1482102292.87,0.048624,0.315754,-0.243160,-0.016768,-0.038007,0.037046,0.046202,-0.310534,-0.949439,-0.019712,0.019976,-0.011804,23.785446,17.345257,-46.730026,,,,,,
1482102292.96,0.052146,0.315329,-0.242908,-0.002895,-0.085277,0.028657,0.049553,-0.310129,-0.949402,0.004036,0.006144,0.027176,23.867603,17.491589,-46.633495,,,,,,
1482102293.05,0.055467,0.314487,-0.244095,0.012219,0.085672,-0.071029,0.052719,-0.309329,-0.949493,-0.012238,-0.007505,-0.090409,23.834356,17.500000,-46.647343,,,,,,
1482102293.14,0.054217,0.314700,-0.246470,-0.026513,-0.078944,0.013250,0.051529,-0.309531,-0.949492,-0.041627,-0.007302,0.025618,23.877974,17.562469,-46.601536,,,,,,
1482102293.23,0.056403,0.313454,-0.248393,0.017283,-0.113187,-0.000365,0.053626,-0.308346,-0.949762,0.034219,-0.024540,-0.021659,23.901253,17.675121,-46.546982,,,,,,
1482102293.32,0.053152,0.313739,-0.249054,0.011938,0.068485,-0.004770,0.050534,-0.308617,-0.949843,0.010654,-0.027992,-0.055742,23.645384,17.664883,-46.681355,,,,,,
1482102293.41,0.048467,0.314219,-0.246748,-0.056597,0.078839,-0.020831,0.046076,-0.309074,-0.949921,-0.055109,0.005744,0.039445,23.520060,17.570618,-46.780136,,,,,,
1482102293.50,0.055599,0.316996,-0.250648,0.020872,-0.129100,0.040572,0.052802,-0.311713,-0.948708,0.066125,-0.014230,-0.004066,23.859934,17.594078,-46.598854,,,,,,
1482102293.59,0.047909,0.312585,-0.243556,-0.070902,0.259220,0.018215,0.045570,-0.307519,-0.950450,-0.063178,-0.013221,0.010875,23.393816,17.531483,-46.858063,,,,,,
1482102293.68,0.054667,0.312972,-0.246348,0.002456,-0.127522,-0.014585,0.051985,-0.307888,-0.950001,0.041734,0.007473,0.040715,23.919752,17.648682,-46.547512,,,,,,
1482102293.77,0.053088,0.310833,-0.247171,-0.011512,-0.035420,-0.005215,0.050520,-0.305852,-0.950738,0.004823,-0.008403,-0.037009,23.763561,17.767946,-46.582127,,,,,,
1482102293.86,0.051770,0.312470,-0.249017,-0.000245,-0.085218,0.010522,0.049241,-0.307410,-0.950302,0.023956,-0.028955,-0.015442,23.702099,17.732716,-46.626842,,,,,,
1482102293.96,0.048716,0.310335,-0.246444,-0.036642,-0.036553,0.033611,0.046371,-0.305377,-0.951102,-0.013747,-0.008999,-0.026254,23.609537,17.776051,-46.657291,,,,,,
1482102294.05,0.062241,0.306576,-0.248169,-0.029049,0.024082,-0.010095,0.059301,-0.301796,-0.951526,0.047221,-0.026527,-0.040371,23.940886,17.950245,-46.421158,,,,,,
1482102294.14,0.058417,0.302965,-0.245036,-0.056966,0.133119,0.036680,0.055725,-0.298351,-0.952828,-0.015167,-0.014546,-0.030189,23.918058,18.017303,-46.406944,,,,,,
1482102294.23,0.050925,0.300545,-0.240540,-0.032781,-0.093507,0.039861,0.048622,-0.296041,-0.953937,-0.005165,-0.006052,-0.018216,23.887968,18.120121,-46.382401,,,,,,
1482102294.32,0.044469,0.299071,-0.237451,-0.034209,0.007006,0.037009,0.042481,-0.294633,-0.954666,0.003586,-0.003905,-0.006394,23.639547,18.129602,-46.505810,,,,,,
1482102294.41,0.045327,0.295272,-0.234866,-0.040512,0.140395,-0.005664,0.043350,-0.291000,-0.955740,-0.007782,-0.006333,-0.018335,23.679449,18.227116,-46.447357,,,,,,
1482102294.50,0.049825,0.291182,-0.235400,-0.035306,-0.028045,0.022744,0.047707,-0.287085,-0.956716,-0.007623,-0.006754,-0.016367,23.987329,18.462849,-46.195591,,,,,,
1482102294.59,0.046286,0.287936,-0.236086,0.036029,0.032121,-0.049426,0.044365,-0.283974,-0.957805,0.011879,-0.012489,-0.052754,23.779339,18.633816,-46.234459,,,,,,
1482102294.68,0.038453,0.287884,-0.236573,-0.050337,-0.046151,0.042273,0.036861,-0.283924,-0.958138,-0.013424,-0.040738,0.038872,23.486198,18.624969,-46.387608,,,,,,
1482102294.77,0.032188,0.289356,-0.235800,-0.000283,-0.217458,0.082184,0.030845,-0.285335,-0.957931,0.020623,0.010738,-0.007492,23.209421,18.579041,-46.545067,,,,,,
1482102294.86,0.021199,0.287090,-0.230323,-0.014226,-0.031968,0.047784,0.020330,-0.283163,-0.958856,-0.002355,-0.016871,-0.020117,22.776836,18.555412,-46.767654,,,,,,
1482102294.95,0.021323,0.284167,-0.225084,-0.008054,0.045536,0.028087,0.020466,-0.280358,-0.959677,-0.021306,-0.002799,-0.018426,22.896412,18.578320,-46.700123,,,,,,
1482102295.04,0.021848,0.282930,-0.223057,-0.048951,-0.076379,0.027954,0.020978,-0.279170,-0.960012,-0.004620,0.018291,0.021582,23.056648,18.577591,-46.621510,,,,,,
1482102295.13,0.020445,0.282528,-0.221478,-0.006664,0.086855,-0.016659,0.019633,-0.278785,-0.960153,-0.006175,0.004187,-0.015479,22.933840,18.569901,-46.685104,,,,,,
1482102295.22,0.024326,0.280856,-0.222284,-0.012891,0.086889,-0.012956,0.023371,-0.277178,-0.960534,-0.020273,0.001162,-0.012137,23.071880,18.672531,-46.576023,,,,,,
1482102295.32,0.030252,0.278305,-0.228866,0.020999,0.057640,-0.042123,0.029084,-0.274726,-0.961083,0.016037,-0.035134,-0.011848,23.216867,18.933456,-46.398300,,,,,,
1482102295.41,0.029171,0.278323,-0.229206,-0.032848,0.077366,-0.009056,0.028044,-0.274744,-0.961108,-0.016951,-0.009649,0.001666,23.157228,18.933971,-46.427887,,,,,,
1482102295.50,0.026108,0.276635,-0.227387,-0.050202,-0.007289,0.005997,0.025112,-0.273120,-0.961652,-0.031674,0.011142,0.026716,23.094503,18.944653,-46.454762,,,,,,
1482102295.59,0.032980,0.276573,-0.228810,0.075951,-0.049511,-0.010997,0.031720,-0.273060,-0.961474,0.028369,0.029088,-0.004575,23.383198,19.054733,-46.264938,,,,,,
1482102295.68,0.028224,0.279195,-0.228957,0.024479,0.048923,0.013246,0.027127,-0.275582,-0.960895,-0.010419,-0.049095,-0.088559,23.126101,18.902590,-46.456184,,,,,,
1482102295.77,0.024815,0.282254,-0.227854,-0.012828,-0.042822,0.029779,0.023830,-0.278521,-0.960135,-0.007397,0.027804,0.053732,23.098869,18.688103,-46.556396,,,,,,
1482102295.86,0.026458,0.280402,-0.228658,0.047412,-0.101285,-0.018833,0.025421,-0.276742,-0.960608,0.024154,0.065224,0.075202,23.047110,18.654701,-46.595428,,,,,,
1482102295.95,0.018726,0.279320,-0.228774,0.075607,-0.013373,0.039392,0.017999,-0.275702,-0.961075,0.042899,-0.019510,-0.096497,22.702549,18.910812,-46.661297,,,,,,
1482102296.04,0.014852,0.274826,-0.222914,-0.141926,0.234345,0.034878,0.014294,-0.271379,-0.962366,-0.041760,0.009782,0.085078,22.723146,18.984852,-46.621189,,,,,,
1482102296.13,0.029087,0.272983,-0.225558,0.000954,0.057746,-0.025024,0.028006,-0.269605,-0.962564,0.048898,0.023542,0.017373,23.260876,19.112715,-46.302670,,,,,,
1482102296.22,0.037257,0.263630,-0.225160,-0.053618,-0.031292,-0.044389,0.035961,-0.260587,-0.964780,0.017154,-0.027255,0.027112,23.704988,19.464275,-45.929474,,,,,,
1482102296.31,0.043818,0.269715,-0.227245,0.044598,-0.105146,0.048639,0.042220,-0.266457,-0.962922,0.060441,-0.001564,-0.047897,23.983006,19.431372,-45.798889,,,,,,
1482102296.40,0.048533,0.262815,-0.221923,-0.015249,0.128222,-0.052829,0.046848,-0.259800,-0.964525,-0.064350,-0.023479,-0.072355,24.154886,19.426727,-45.710445,,,,,,
1482102296.49,0.050996,0.265979,-0.229177,0.056371,-0.212789,-0.009971,0.049181,-0.262854,-0.963581,0.038145,-0.051965,-0.013927,24.224548,19.534618,-45.627525,,,,,,
1482102296.58,0.045315,0.271902,-0.228779,-0.035197,0.112629,-0.045279,0.043635,-0.268564,-0.962273,-0.033824,0.039957,0.059670,23.875113,19.206059,-45.950054,,,,,,
1482102296.68,0.052090,0.274030,-0.229221,-0.008841,-0.123936,0.024120,0.050124,-0.270613,-0.961382,0.012391,0.000334,0.004076,24.279459,19.144489,-45.763496,,,,,,
1482102296.77,0.052029,0.274132,-0.227100,-0.015384,0.075977,0.000396,0.050064,-0.270712,-0.961358,-0.006225,0.007360,-0.026145,24.216702,19.081726,-45.822922,,,,,,
1482102296.86,0.058325,0.272967,-0.228209,-0.007753,0.111160,-0.037177,0.056133,-0.269590,-0.961338,0.005421,-0.039980,-0.012387,24.473774,19.245306,-45.617470,,,,,,
1482102296.95,0.057760,0.268170,-0.223155,-0.021713,-0.015000,0.061082,0.055665,-0.264967,-0.962649,-0.037003,0.038511,0.042575,24.743437,19.198944,-45.491364,,,,,,
1482102297.04,0.079259,0.261140,-0.225145,-0.041463,0.202324,-0.060066,0.076492,-0.258182,-0.963063,0.042588,-0.041165,-0.091975,25.419308,19.750170,-44.878620,,,,,,
1482102297.13,0.081774,0.261910,-0.225643,-0.093984,0.092346,0.012107,0.078897,-0.258926,-0.962670,-0.018609,0.039581,0.029701,25.591473,19.593510,-44.849438,,,,,,
1482102297.22,0.088317,0.255610,-0.226996,0.093891,-0.076204,-0.056821,0.085337,-0.252835,-0.963739,-0.007135,-0.025332,0.007104,25.945854,19.986269,-44.470921,,,,,,
1482102297.31,0.079965,0.266006,-0.228292,0.033854,-0.035953,-0.014143,0.077070,-0.262880,-0.961745,-0.001601,0.014208,0.000045,25.535227,19.544348,-44.902916,,,,,,
1482102297.40,0.076738,0.268543,-0.230714,0.073892,-0.053194,-0.031405,0.073915,-0.265327,-0.961321,-0.003755,-0.010216,0.009874,25.340538,19.467514,-45.046356,,,,,,
1482102297.49,0.074804,0.271614,-0.230097,-0.006482,0.021092,0.043860,0.071995,-0.268287,-0.960645,-0.039753,-0.017953,-0.058917,25.216436,19.295662,-45.189709,,,,,,
1482102297.58,0.075947,0.269815,-0.227763,-0.000724,-0.075419,-0.064088,0.073129,-0.266553,-0.961042,-0.045282,0.000562,0.025251,25.377031,19.303795,-45.096241,,,,,,
1482102297.67,0.083189,0.273572,-0.234544,0.012732,-0.013891,-0.038059,0.080003,-0.270172,-0.959482,0.058348,0.018127,-0.039312,25.468933,19.275957,-45.056320,,,,,,
1482102297.76,0.076175,0.270031,-0.233422,-0.029919,0.002074,0.002110,0.073344,-0.266761,-0.960968,-0.026744,-0.027978,-0.025681,25.187040,19.408781,-45.157650,,,,,,
1482102297.85,0.075004,0.269339,-0.231612,-0.011446,0.025987,0.037883,0.072232,-0.266094,-0.961237,-0.047391,-0.008533,-0.004339,25.155155,19.422823,-45.169384,,,,,,
1482102297.95,0.077192,0.265365,-0.230246,-0.016206,-0.044139,0.022623,0.074416,-0.262261,-0.962123,0.008607,0.027093,-0.019703,25.322321,19.564833,-45.014423,,,,,,
1482102298.04,0.073158,0.266692,-0.230388,0.009943,-0.015303,0.019761,0.070509,-0.263542,-0.962068,0.012575,-0.029244,-0.026153,25.136524,19.515745,-45.139694,,,,,,
1482102298.13,0.073977,0.262506,-0.229205,-0.071136,0.117586,-0.035236,0.071378,-0.259502,-0.963101,-0.031217,0.032237,0.033337,25.184141,19.663496,-45.048939,,,,,,
1482102298.22,0.076703,0.261349,-0.228755,-0.007525,0.004095,0.028293,0.074026,-0.258384,-0.963202,0.018946,-0.028206,-0.063654,25.342365,19.737724,-44.927586,,,,,,
1482102298.31,0.075032,0.254955,-0.222457,-0.060161,0.108659,0.033265,0.072538,-0.252202,-0.964952,-0.050275,-0.037349,-0.020613,25.398592,19.873058,-44.836082,,,,,,
1482102298.40,0.082983,0.256447,-0.223585,0.091607,-0.132173,-0.030057,0.080177,-0.253645,-0.963969,0.030663,0.013457,0.009364,25.809305,19.866947,-44.603645,,,,,,
1482102298.49,0.081997,0.262330,-0.224553,0.041309,-0.073818,0.024451,0.079104,-0.259331,-0.962543,0.023207,0.014214,-0.047680,25.727594,19.631798,-44.754715,,,,,,
1482102298.58,0.078988,0.264620,-0.223697,0.008869,0.056209,-0.027517,0.076160,-0.261543,-0.962182,0.002240,-0.018593,-0.027701,25.626726,19.494717,-44.872349,,,,,,
1482102298.67,0.074442,0.272740,-0.228250,0.080484,-0.124732,-0.051621,0.071624,-0.269372,-0.960369,0.001679,-0.008583,0.058865,25.278759,19.332729,-45.139019,,,,,,
1482102298.76,0.074461,0.274155,-0.231441,0.005321,-0.075795,-0.008802,0.071614,-0.270733,-0.959987,0.037044,-0.009204,-0.023579,25.224432,19.184612,-45.232510,,,,,,
1482102298.85,0.063492,0.273891,-0.228813,-0.023581,0.049199,-0.019863,0.061084,-0.270480,-0.960786,-0.044483,0.001894,0.036088,24.746738,19.126616,-45.520023,,,,,,
1482102298.94,0.073416,0.276216,-0.235652,0.090547,-0.205998,-0.034514,0.070570,-0.272717,-0.959503,0.061663,0.028241,0.075210,24.726742,19.099754,-45.542164,,,,,,
1482102299.03,0.060050,0.279224,-0.236428,-0.019829,-0.069650,0.027587,0.057690,-0.275610,-0.959537,-0.000714,-0.004892,0.001453,24.423994,19.054754,-45.724022,,,,,,
1482102299.12,0.061014,0.280850,-0.232510,0.010027,0.039160,-0.002176,0.058588,-0.277172,-0.959032,-0.054880,0.027447,0.017977,24.496126,18.901758,-45.748928,,,,,,
1482102299.21,0.064289,0.280476,-0.240032,0.047929,-0.000992,-0.066260,0.061734,-0.276813,-0.958939,0.076312,-0.018353,-0.038559,24.466858,19.070023,-45.694729,,,,,,
1482102299.31,0.064447,0.281263,-0.243965,-0.028547,0.131564,-0.044281,0.061871,-0.277569,-0.958711,-0.050839,-0.008213,0.038881,24.283031,19.040352,-45.805031,,,,,,
1482102299.40,0.071247,0.281827,-0.242882,-0.032663,0.070621,0.058368,0.068378,-0.278111,-0.958112,-0.044239,-0.004940,0.004545,24.650120,19.065002,-45.598228,,,,,,
1482102299.49,0.072740,0.277344,-0.242975,0.011929,0.066046,-0.121502,0.069899,-0.273802,-0.959243,-0.012678,0.003676,0.011046,24.746374,19.262177,-45.463028,,,,,,
1482102299.58,0.065097,0.281524,-0.247612,0.066947,-0.270299,-0.006239,0.062490,-0.277820,-0.958599,0.088343,-0.002942,-0.007603,24.453119,19.225565,-45.636868,,,,,,
1482102299.67,0.053266,0.282005,-0.248337,0.007550,-0.029023,0.042710,0.051137,-0.278282,-0.959137,0.034022,-0.029991,-0.037033,23.642670,19.211746,-46.067711,,,,,,
1482102299.76,0.050811,0.281715,-0.246128,-0.029903,0.018579,0.029704,0.048787,-0.278003,-0.959340,-0.004110,0.017871,0.035604,23.645771,19.130093,-46.100090,,,,,,
1482102299.85,0.053022,0.283498,-0.247812,0.031544,0.018270,-0.033638,0.050882,-0.279715,-0.958734,0.029288,0.000312,0.001092,23.660038,19.099220,-46.105572,,,,,,
1482102299.94,0.058912,0.284866,-0.252015,-0.016141,0.065779,0.002833,0.056505,-0.281029,-0.958034,0.032698,-0.039482,-0.086170,23.813713,19.092102,-46.029335,,,,,,
1482102300.03,0.059060,0.282293,-0.246920,-0.061405,0.195663,0.018429,0.056689,-0.278559,-0.958745,-0.047931,0.013788,0.033604,23.958946,19.109884,-45.946514,,,,,,
1482102300.12,0.070808,0.282095,-0.247644,0.011252,0.077618,0.007260,0.067953,-0.278369,-0.958067,0.015025,-0.030835,-0.047685,24.451382,19.153269,-45.668186,,,,,,
1482102300.21,0.068399,0.282198,-0.249833,-0.009449,-0.084378,-0.024198,0.065642,-0.278468,-0.958200,0.012681,0.002558,0.054986,24.424080,19.120430,-45.696548,,,,,,
1482102300.30,0.064202,0.284867,-0.252183,0.017708,-0.059355,0.019887,0.061573,-0.281030,-0.957722,0.032055,0.012689,0.054493,24.096342,19.114706,-45.872601,,,,,,
1482102300.39,0.060863,0.279328,-0.246762,-0.047336,0.124185,-0.021098,0.058468,-0.275710,-0.959461,-0.057461,0.007964,0.003574,24.195795,19.143696,-45.808117,,,,,,
1482102300.48,0.073860,0.280512,-0.251952,0.034569,-0.134219,-0.073856,0.070908,-0.276848,-0.958294,0.044784,0.003563,0.034054,24.413212,19.308548,-45.623196,,,,,,
1482102300.57,0.071863,0.276051,-0.251195,-0.027482,0.096050,0.010085,0.069083,-0.272558,-0.959656,-0.009879,-0.006235,-0.109405,24.490175,19.408627,-45.539410,,,,,,
1482102300.67,0.072619,0.274699,-0.250291,-0.028416,-0.006785,-0.007478,0.069835,-0.271258,-0.959970,-0.002162,-0.014753,0.050088,24.507011,19.521881,-45.481903,,,,,,
1482102300.76,0.071498,0.280121,-0.250036,-0.006278,0.017041,0.043898,0.068653,-0.276472,-0.958567,0.018933,0.009641,0.004648,24.437862,19.317545,-45.606190,,,,,,
1482102300.85,0.068904,0.278471,-0.246899,-0.013363,-0.011765,-0.024459,0.066197,-0.274886,-0.959195,-0.035603,0.021422,0.066770,24.460550,19.296154,-45.603085,,,,,,
1482102300.94,0.062740,0.281968,-0.248554,0.027847,-0.157646,0.025100,0.060223,-0.278247,-0.958620,0.047474,0.002246,0.010027,24.350737,19.265879,-45.674595,,,,,,
1482102301.03,0.059110,0.276970,-0.249344,-0.028331,-0.046836,-0.012044,0.056824,-0.273442,-0.960208,0.027938,-0.000239,0.045627,23.954344,19.400761,-45.826859,,,,,,
1482102301.12,0.059046,0.282232,-0.253187,0.008941,-0.044894,0.015212,0.056677,-0.278500,-0.958763,0.018762,-0.000980,0.032890,23.822041,19.256935,-45.956306,,,,,,
1482102301.21,0.059777,0.279371,-0.249855,-0.057530,0.003938,0.065147,0.057425,-0.275751,-0.959512,0.000009,0.021951,-0.014944,23.916245,19.315685,-45.882660,,,,,,
1482102301.30,0.068121,0.277504,-0.250207,0.036525,0.042210,-0.048089,0.065464,-0.273956,-0.959512,0.006847,-0.033768,-0.043266,24.196445,19.512154,-45.652042,,,,,,
1482102301.39,0.066698,0.277273,-0.246874,-0.056388,0.053505,0.066141,0.064103,-0.273734,-0.959667,-0.039444,0.008781,0.013317,24.279381,19.327774,-45.686432,,,,,,
1482102301.48,0.064780,0.271084,-0.243205,-0.023343,0.077839,-0.061923,0.062371,-0.267776,-0.961460,-0.025643,0.010803,0.076634,24.306160,19.489605,-45.603363,,,,,,
1482102301.57,0.066160,0.273714,-0.249672,0.101845,-0.132715,-0.063676,0.063651,-0.270309,-0.960667,0.019296,0.040329,0.070164,24.312990,19.626263,-45.541073,,,,,,
1482102301.66,0.063204,0.274601,-0.252367,-0.041313,0.035144,0.056496,0.060796,-0.271163,-0.960612,0.010112,-0.040620,-0.055471,23.974337,19.709517,-45.684433,,,,,,
1482102301.75,0.069077,0.270144,-0.248465,-0.121074,0.105019,0.015016,0.066519,-0.266870,-0.961434,-0.049505,0.051111,0.072167,24.317158,19.653137,-45.527256,,,,,,
1482102301.84,0.065206,0.268513,-0.249626,0.092641,-0.034820,-0.008568,0.062825,-0.265298,-0.962117,0.081294,-0.051017,-0.043620,24.216759,19.931578,-45.459675,,,,,,
1482102301.94,0.065417,0.266618,-0.250132,-0.062189,0.079215,-0.024059,0.063060,-0.263470,-0.962604,-0.043056,-0.031070,-0.016827,24.134258,19.861755,-45.534046,,,,,,
1482102302.03,0.069643,0.270040,-0.250728,0.023945,0.084557,-0.038344,0.067065,-0.266770,-0.961424,-0.014742,-0.005935,-0.019731,24.294270,19.799545,-45.476009,,,,,,
1482102302.12,0.064790,0.269191,-0.253285,0.019151,-0.036521,-0.025682,0.062413,-0.265951,-0.961964,0.000164,-0.044352,-0.006832,24.090483,19.868679,-45.554203,,,,,,
1482102302.21,0.066962,0.271948,-0.253496,0.001356,0.019158,0.021243,0.064453,-0.268608,-0.961091,-0.027206,0.006722,0.038819,24.145716,19.747414,-45.577682,,,,,,
1482102302.30,0.069001,0.268610,-0.249320,-0.022558,0.169570,0.000371,0.066474,-0.265392,-0.961846,-0.067313,-0.019215,-0.028831,24.260063,19.800114,-45.494022,,,,,,
1482102302.39,0.068339,0.268436,-0.251609,0.037349,-0.243572,-0.066999,0.065840,-0.265224,-0.961936,0.000596,0.042217,0.105232,24.566078,19.910007,-45.281349,,,,,,
1482102302.48,0.059407,0.272348,-0.255601,0.045010,-0.089298,0.095923,0.057183,-0.268993,-0.961443,0.092353,-0.047779,-0.102385,23.768333,19.884430,-45.716267,,,,,,
1482102302.57,0.061093,0.264418,-0.248302,-0.172676,0.307470,0.058213,0.058933,-0.261348,-0.963444,-0.135624,0.002681,0.074497,23.656000,19.780920,-45.819317,,,,,,
1482102302.66,0.071692,0.261427,-0.249928,0.015863,-0.042490,-0.053156,0.069197,-0.258459,-0.963541,0.017946,0.025229,0.068109,24.494781,20.160812,-45.208939,,,,,,
1482102302.75,0.070295,0.266783,-0.260589,0.039986,-0.311585,-0.022104,0.067752,-0.263629,-0.962242,0.093197,-0.044369,-0.011010,24.153196,20.137402,-45.402744,,,,,,
1482102302.84,0.063243,0.264718,-0.260595,-0.057043,0.095897,0.019351,0.060999,-0.261637,-0.963237,0.022878,-0.049093,-0.076757,23.690590,20.180252,-45.626907,,,,,,
1482102302.93,0.063789,0.260020,-0.252919,-0.050898,0.106689,0.032466,0.061603,-0.257099,-0.964419,-0.071811,0.029759,0.085757,23.870459,20.252789,-45.500839,,,,,,
1482102303.02,0.062920,0.261726,-0.255860,0.087433,-0.030852,-0.110576,0.060738,-0.258748,-0.964033,0.114357,-0.033946,-0.003526,23.928667,20.303850,-45.447483,,,,,,
1482102303.11,0.049441,0.265001,-0.254569,-0.119588,-0.039595,0.129123,0.047696,-0.261910,-0.963913,-0.022824,-0.010017,0.024918,23.457512,20.046474,-45.805950,,,,,,
1482102303.20,0.070878,0.257527,-0.245954,-0.034615,0.217974,0.007760,0.068483,-0.254690,-0.964595,-0.050371,-0.008997,-0.051137,24.427332,20.252655,-45.204384,,,,,,
